[{"name":"B.A.T.S. Bar and Restaurant","description":"Roomy, dark tavern for cocktails, American grub & live music at the Shangri-La Hotel Jakarta.","fulladdress":"BNI, Shangri-La Jakarta Kota, Jl. Jenderal Sudirman No.Kav. 1, Jakarta 10220","street":"BNI","municipality":"Shangri-La Jakarta Kota","categories":"Bar & grill","timeZone":"Asia/Jakarta","phone":"(021) 29229999","phones":"(021) 29229999, +62 21 29229999","claimed":"YES","reviewCount":671,"averageRating":4.3,"reviewURL":"https://search.google.com/local/reviews?placeid=ChIJmagl7x30aS4R4wIvEGyzl8c&q=Restaurants&authuser=1&hl=en&gl=ID","googleMapsURL":"https://www.google.com/maps?cid=14382161211740324579","latitude":-6.2026648,"longitude":106.81847479999999,"website":"https://www.shangri-la.com/jakarta/shangrila/dining/bars-lounges/bats/","domain":"shangri-la.com","openingHours":"Thursday: [5.00 pm-2.00 am], Friday: [5.00 pm-2.00 am], Saturday: [5.00 pm-2.00 am], Sunday: [Closed], Monday: [5.00 pm-2.00 am], Tuesday: [5.00 pm-2.00 am], Wednesday: [5.00 pm-2.00 am]","featuredImage":"https://lh5.googleusercontent.com/p/AF1QipPfby_coSCgU7YKyXrljRGQ7YQrY6InV310vdgF=w163-h92-k-no","cid":"14382161211740324579","fid":"0x2e69f41def25a899:0xc797b36c102f02e3","placeId":"ChIJmagl7x30aS4R4wIvEGyzl8c"},{"name":"The Coach Restaurant","description":"Fashionable American leather-goods brand known for its signature handbags, plus shoes & accessories.","fulladdress":"Arjuna Lobby, Grand Indonesia West Mall, Jl. Teluk Betung No.45A Ground Floor, Kb. Melati, Kecamatan Tanah Abang, Kota Jakarta Pusat, Daerah Khusus Ibukota Jakarta 10230","street":"Arjuna Lobby, Grand Indonesia West Mall","municipality":"Jl. Teluk Betung No.45A Ground Floor","categories":"American restaurant","timeZone":"Asia/Jakarta","phone":"(021) 30049705","phones":"(021) 30049705, +62 21 30049705","claimed":"YES","reviewCount":66,"averageRating":4.7,"reviewURL":"https://search.google.com/local/reviews?placeid=ChIJjYgOWQD1aS4R7x1__LLHfXk&q=Restaurants&authuser=1&hl=en&gl=ID","googleMapsURL":"https://www.google.com/maps?cid=8754372822232407535","latitude":-6.1951827,"longitude":106.81975159999999,"website":"https://id.coach.com/thecoachrestaurant","domain":"id.coach.com","openingHours":"Friday: [12.00-11.00 pm], Saturday: [12.00-11.00 pm], Sunday: [12.00-10.00 pm], Monday: [12.00-10.00 pm], Tuesday: [12.00-10.00 pm], Wednesday: [12.00-10.00 pm], Thursday: [12.00-10.00 pm]","featuredImage":"https://lh5.googleusercontent.com/p/AF1QipPscGKgH2nHbLbEDcrc58Yce5VUmM0x9PA3gOWn=w138-h92-k-no","cid":"8754372822232407535","fid":"0x2e69f500590e888d:0x797dc7b2fc7f1def","placeId":"ChIJjYgOWQD1aS4R7x1__LLHfXk"},{"name":"Yakiniku Like Grand Indonesia","fulladdress":"Jl. M.H. Thamrin No.1, RT.1/RW.5, Kb. Melati, Kec. Menteng, Kota Jakarta Pusat, Daerah Khusus Ibukota Jakarta 10310","street":"Jl. M.H. Thamrin No.1","municipality":"RT.1/RW.5, Kebon Melati","categories":"Japanese steakhouse, Japanese restaurant, Meat dish restaurant","timeZone":"Asia/Jakarta","phone":"(021) 3108388","phones":"(021) 3108388, +62 21 3108388","claimed":"YES","reviewCount":5315,"averageRating":4.9,"reviewURL":"https://search.google.com/local/reviews?placeid=ChIJvz4FSxH1aS4REraj3YHC1-I&q=Restaurants&authuser=1&hl=en&gl=ID","googleMapsURL":"https://www.google.com/maps?cid=16345747235589568018","latitude":-6.195430099999999,"longitude":106.82031409999999,"openingHours":"Friday: [10.00 am-10.00 pm], Saturday: [10.00 am-10.00 pm], Sunday: [10.00 am-10.00 pm], Monday: [10.00 am-10.00 pm], Tuesday: [10.00 am-10.00 pm], Wednesday: [10.00 am-10.00 pm], Thursday: [10.00 am-10.00 pm]","featuredImage":"https://lh5.googleusercontent.com/p/AF1QipO8NMve1jvqjQAeWROt47Ko_Ix-SwFmqB4MBsv1=w163-h92-k-no","cid":"16345747235589568018","fid":"0x2e69f5114b053ebf:0xe2d7c281dda3b612","placeId":"ChIJvz4FSxH1aS4REraj3YHC1-I"},{"name":"Shabu-Shabu Letasu","fulladdress":"Kebon Melati, Tanah Abang, Central Jakarta City, Jakarta","street":"Kebon Melati","municipality":"Tanah Abang","categories":"Japanese restaurant, Authentic Japanese restaurant","timeZone":"Asia/Jakarta","phone":"(021) 23581265","phones":"(021) 23581265, +62 21 23581265","claimed":"YES","reviewCount":7022,"averageRating":4.9,"reviewURL":"https://search.google.com/local/reviews?placeid=ChIJQ3nEWiD0aS4RqIMfSRSLoKE&q=Restaurants&authuser=1&hl=en&gl=ID","googleMapsURL":"https://www.google.com/maps?cid=11646461555622511528","latitude":-6.1950411999999995,"longitude":106.8199157,"website":"https://shabushabu-let-us.com/index.html","domain":"shabushabu-let-us.com","openingHours":"Friday: [10.00 am-10.00 pm], Saturday: [10.00 am-10.00 pm], Sunday: [10.00 am-10.00 pm], Monday: [10.00 am-10.00 pm], Tuesday: [10.00 am-10.00 pm], Wednesday: [10.00 am-10.00 pm], Thursday: [10.00 am-10.00 pm]","featuredImage":"https://lh5.googleusercontent.com/p/AF1QipPKl1L4whmI-Zfxc0tcYxVnpgI5lzObvle3s0Fw=w163-h92-k-no","cid":"11646461555622511528","fid":"0x2e69f4205ac47943:0xa1a08b14491f83a8","placeId":"ChIJQ3nEWiD0aS4RqIMfSRSLoKE"},{"name":"Gyu-Kaku Grand Indonesia","fulladdress":"〒10310 Jakarta, Central Jakarta City, Menteng, Kebon Melati","street":"Grand Indonesia West Mall","municipality":"Jl. M.H. Thamrin No.1 Level 3A","categories":"Japanese restaurant","timeZone":"Asia/Jakarta","phone":"(021) 21237330","phones":"(021) 21237330, +62 21 21237330","claimed":"YES","reviewCount":438,"averageRating":4.7,"reviewURL":"https://search.google.com/local/reviews?placeid=ChIJidS7cdv1aS4Rq5ss8qbL6Ng&q=Restaurants&authuser=1&hl=en&gl=ID","googleMapsURL":"https://www.google.com/maps?cid=15629966424677325739","latitude":-6.1953494,"longitude":106.8201156,"website":"https://gyu-kaku.id/","domain":"gyu-kaku.id","openingHours":"Friday: [10.00 am-10.00 pm], Saturday: [10.00 am-10.00 pm], Sunday: [10.00 am-10.00 pm], Monday: [10.00 am-10.00 pm], Tuesday: [10.00 am-10.00 pm], Wednesday: [10.00 am-10.00 pm], Thursday: [10.00 am-10.00 pm]","featuredImage":"https://lh5.googleusercontent.com/p/AF1QipMyEmahD0Nwai2qRnsXA6f7K4aTP9CK8RpLB5wO=w122-h92-k-no","cid":"15629966424677325739","fid":"0x2e69f5db71bbd489:0xd8e8cba6f22c9bab","placeId":"ChIJidS7cdv1aS4Rq5ss8qbL6Ng"},{"name":"The People's Cafe Grand Indonesia","fulladdress":"Jl. Tlk. Betung I No.45A, Kb. Melati, Kecamatan Tanah Abang, Kota Jakarta Pusat, Daerah Khusus Ibukota Jakarta 10230","street":"Jl. Tlk. Betung I No.45A","municipality":"Kebon Melati","categories":"Cafe, Breakfast restaurant, Indonesian restaurant, Noodle shop","timeZone":"Asia/Jakarta","phone":"(021) 23581157","phones":"(021) 23581157, +62 21 23581157","claimed":"YES","reviewCount":763,"averageRating":4.1,"reviewURL":"https://search.google.com/local/reviews?placeid=ChIJO32V3SH0aS4RXRhFZsSMy6c&q=Restaurants&authuser=1&hl=en&gl=ID","googleMapsURL":"https://www.google.com/maps?cid=12090912399763511389","latitude":-6.1958737,"longitude":106.8206723,"website":"http://www.ismaya.com/","domain":"ismaya.com","openingHours":"Friday: [10.00 am-10.00 pm], Saturday: [10.00 am-10.00 pm], Sunday: [10.00 am-10.00 pm], Monday: [10.00 am-10.00 pm], Tuesday: [10.00 am-10.00 pm], Wednesday: [10.00 am-10.00 pm], Thursday: [10.00 am-10.00 pm]","featuredImage":"https://lh3.googleusercontent.com/gps-proxy/ALd4DhEazv6DeZTrJyuxDU7m19RMbKVnpj7P78RMMX5ztKaHtefy7rqaQ0NlM50nwDditfAdDT0SsA9ZrjKfGHqG-jFxTyd4ECOinODd_6_eHPVU1ebKS0ELL1YPcIzoXqtvU0_I8Ap30z0VqP4sMejVG1C8s1DjlWDyG-YCjU_-KK5vKUstvbFL4UFT=w122-h92-k-no","cid":"12090912399763511389","fid":"0x2e69f421dd957d3b:0xa7cb8cc46645185d","placeId":"ChIJO32V3SH0aS4RXRhFZsSMy6c"},{"name":"La Moda","fulladdress":"Jl. M.H. Thamrin No.28 – 30, Gondangdia, Kec. Menteng, Kota Jakarta Pusat, Daerah Khusus Ibukota Jakarta 10350","street":"Jl. M.H. Thamrin No.28 – 30","municipality":"Gondangdia","categories":"Restaurant","timeZone":"Asia/Jakarta","phone":"(021) 29921298","phones":"(021) 29921298, +62 21 29921298","claimed":"YES","reviewCount":1258,"averageRating":4.5,"reviewURL":"https://search.google.com/local/reviews?placeid=ChIJp1eqECH0aS4ReFMFz6U7gAg&q=Restaurants&authuser=1&hl=en&gl=ID","googleMapsURL":"https://www.google.com/maps?cid=612555132651262840","latitude":-6.1934336,"longitude":106.82153269999999,"website":"https://www.instagram.com/lamodajkt/?hl=en","domain":"instagram.com","openingHours":"Friday: [10.00 am-10.00 pm], Saturday: [10.00 am-10.00 pm], Sunday: [10.00 am-10.00 pm], Monday: [10.00 am-10.00 pm], Tuesday: [10.00 am-10.00 pm], Wednesday: [10.00 am-10.00 pm], Thursday: [10.00 am-10.00 pm]","featuredImage":"https://lh5.googleusercontent.com/p/AF1QipMuK-PGLnftGetlbXdagu-r-IWNmxnyt6q70kxc=w138-h92-k-no","cid":"612555132651262840","fid":"0x2e69f42110aa57a7:0x8803ba5cf055378","placeId":"ChIJp1eqECH0aS4ReFMFz6U7gAg"},{"name":"Hokkaido-Ya Grand Indonesia","fulladdress":"Grand Indonesia West Mall Level 3A # 07A, Jl. MH Thamrin No.1, Kb. Melati, Kecamatan Tanah Abang, Kota Jakarta Pusat, Daerah Khusus Ibukota Jakarta 10310","street":"Grand Indonesia West Mall Level 3A # 07A","municipality":"Jl. MH Thamrin No.1","categories":"Japanese restaurant","timeZone":"Asia/Jakarta","phone":"(021) 21390010","phones":"(021) 21390010, +62 21 21390010","claimed":"NO","reviewCount":172,"averageRating":4.3,"reviewURL":"https://search.google.com/local/reviews?placeid=ChIJ-xDhwPv1aS4R8oeMCWciROU&q=Restaurants&authuser=1&hl=en&gl=ID","googleMapsURL":"https://www.google.com/maps?cid=16520367159039002610","latitude":-6.1954039,"longitude":106.82035979999999,"website":"https://www.instagram.com/hokkaidoyaidn/","domain":"instagram.com","openingHours":"Friday: [10.00 am-9.30 pm], Saturday: [10.00 am-9.30 pm], Sunday: [10.00 am-9.30 pm], Monday: [10.00 am-9.30 pm], Tuesday: [10.00 am-9.30 pm], Wednesday: [10.00 am-9.30 pm], Thursday: [10.00 am-9.30 pm]","featuredImage":"https://lh5.googleusercontent.com/p/AF1QipNe4PMJ7cScCQGPOkkqOcgJCTVO-L3aTuswcJ4M=w163-h92-k-no","cid":"16520367159039002610","fid":"0x2e69f5fbc0e110fb:0xe5442267098c87f2","placeId":"ChIJ-xDhwPv1aS4R8oeMCWciROU"},{"name":"JIA","fulladdress":"BNI, Shangri-La Jakarta Kota, Jl. Jenderal Sudirman No.Kav. 1, Jakarta 10220","street":"BNI","municipality":"Shangri-La Jakarta Kota","categories":"Chinese restaurant","timeZone":"Asia/Jakarta","phone":"(021) 29229999","phones":"(021) 29229999, +62 21 29229999","claimed":"YES","reviewCount":234,"averageRating":4.4,"reviewURL":"https://search.google.com/local/reviews?placeid=ChIJDSI5yB30aS4RFZQWRIneClo&q=Restaurants&authuser=1&hl=en&gl=ID","googleMapsURL":"https://www.google.com/maps?cid=6488242894314837013","latitude":-6.202871399999999,"longitude":106.8188054,"website":"https://www.shangri-la.com/jakarta/shangrila/dining/restaurants/jia/","domain":"shangri-la.com","openingHours":"Friday: [11.30 am-2.30 pm, 6.00-10.00 pm], Saturday: [11.00 am-2.30 pm, 6.00-10.00 pm], Sunday: [10.00 am-3.00 pm, 6.00-10.00 pm], Monday: [11.30 am-2.30 pm, 6.00-10.00 pm], Tuesday: [11.30 am-2.30 pm, 6.00-10.00 pm], Wednesday: [11.30 am-2.30 pm, 6.00-10.00 pm], Thursday: [11.30 am-2.30 pm, 6.00-10.00 pm]","featuredImage":"https://lh5.googleusercontent.com/p/AF1QipMGX2L28iXQAQZJBZ5zdDbw8KItZ0Ww9Bcur7Ye=w122-h92-k-no","cid":"6488242894314837013","fid":"0x2e69f41dc839220d:0x5a0ade8944169415","placeId":"ChIJDSI5yB30aS4RFZQWRIneClo"},{"name":"Rosso","fulladdress":"BNI, Shangri-La Jakarta Kota, Jl. Jenderal Sudirman No.Kav. 1, Daerah Khusus Ibukota Jakarta 10220","street":"BNI","municipality":"Shangri-La Jakarta Kota","categories":"Italian restaurant","timeZone":"Asia/Jakarta","phone":"(021) 29229999","phones":"(021) 29229999, +62 21 29229999","claimed":"YES","reviewCount":141,"averageRating":4.5,"reviewURL":"https://search.google.com/local/reviews?placeid=ChIJUV2l5R30aS4RjZgP2yc0pZM&q=Restaurants&authuser=1&hl=en&gl=ID","googleMapsURL":"https://www.google.com/maps?cid=10638967040516266125","latitude":-6.2027836999999995,"longitude":106.81852529999999,"website":"https://www.shangri-la.com/jakarta/shangrila/dining/restaurants/rosso/","domain":"shangri-la.com","openingHours":"Friday: [11.30 am-3.00 pm, 6.00-10.00 pm], Saturday: [11.30 am-3.00 pm, 6.00-10.00 pm], Sunday: [11.30 am-3.00 pm, 6.00-10.00 pm], Monday: [11.30 am-3.00 pm, 6.00-10.00 pm], Tuesday: [11.30 am-3.00 pm, 6.00-10.00 pm], Wednesday: [11.30 am-3.00 pm, 6.00-10.00 pm], Thursday: [11.30 am-3.00 pm, 6.00-10.00 pm]","featuredImage":"https://lh5.googleusercontent.com/p/AF1QipNyY70m3ZTG0KExVaW8Tk9TkpcCAlb4XbW4BceD=w138-h92-k-no","cid":"10638967040516266125","fid":"0x2e69f41de5a55d51:0x93a53427db0f988d","placeId":"ChIJUV2l5R30aS4RjZgP2yc0pZM"}]